{ "_id" : { "$oid" : "4ff73cb568840767e50d4e9c" }, "location" : { "address" : "777 NE ML King Blvd.", "cc" : "US", "city" : "Portland", "country" : "United States", "distance" : 18, "geo" : [ -122.6629328727722, 45.52829837051139 ], "postalCode" : "97232", "state" : "OR" }, "name" : "Agent Reboot Portland", "stats" : { "checkinsCount" : 0, "usersCount" : 0 } }
{ "_id" : { "$oid" : "4ff73cb568840767e50d4e9d" }, "location" : { "address" : "777 NE M L King Blvd", "cc" : "US", "city" : "Portland", "country" : "United States", "crossStreet" : "btwn NE Holladay St & NE Lloyd Blvd", "distance" : 121, "geo" : [ -122.6619258449092, 45.52768677120194 ], "postalCode" : "97232", "state" : "OR" }, "name" : "Oregon Convention Center", "stats" : { "checkinsCount" : 0, "usersCount" : 0 }, "url" : "http://www.oregoncc.org" }
{ "_id" : { "$oid" : "4ff73cb568840767e50d4e9e" }, "location" : { "cc" : "US", "city" : "Portland", "country" : "United States", "distance" : 41, "geo" : [ -122.66265, 45.52824 ], "postalCode" : "97232", "state" : "OR" }, "name" : "START Intl SCAA Booth 2039", "stats" : { "checkinsCount" : 0, "usersCount" : 0 } }
{ "_id" : { "$oid" : "4ff73cb568840767e50d4e9f" }, "location" : { "cc" : "US", "city" : "Portland", "country" : "United States", "distance" : 115, "geo" : [ -122.6618097040231, 45.52791848238654 ], "postalCode" : "97232", "state" : "OR" }, "name" : "Rock 'n' Roll Portland 1/2 Marathon Health & Fitness Expo", "stats" : { "checkinsCount" : 0, "usersCount" : 0 } }
{ "_id" : { "$oid" : "4ff73cb568840767e50d4ea0" }, "location" : { "address" : "399 NE Holladay St", "cc" : "US", "city" : "Portland", "country" : "United States", "crossStreet" : "at NE MLK Blvd", "distance" : 207, "geo" : [ -122.6621332932669, 45.53010759766415 ], "state" : "OR" }, "name" : "TriMet Convention Center MAX Station", "stats" : { "checkinsCount" : 0, "usersCount" : 0 }, "url" : "http://trimet.org/twitter/" }
{ "_id" : { "$oid" : "4ff73cb568840767e50d4ea1" }, "location" : { "address" : "Oregon convention center", "cc" : "US", "city" : "Portland", "country" : "United States", "distance" : 102, "geo" : [ -122.661888, 45.528665 ], "postalCode" : "97232", "state" : "OR" }, "name" : "Stir", "stats" : { "checkinsCount" : 0, "usersCount" : 0 } }
{ "_id" : { "$oid" : "4ff73cb568840767e50d4ea2" }, "location" : { "address" : "500 NE Martin Luther King Jr Blvd", "cc" : "US", "city" : "Portland", "country" : "United States", "crossStreet" : "at NE Lloyd Blvd", "distance" : 228, "geo" : [ -122.66142457, 45.52671154 ], "postalCode" : "97232", "state" : "OR" }, "name" : "Spirit of 77", "stats" : { "checkinsCount" : 0, "usersCount" : 0 }, "url" : "http://www.spiritof77bar.com" }
{ "_id" : { "$oid" : "4ff73cb568840767e50d4ea3" }, "location" : { "address" : "736 NE Martin Luther King Blvd", "cc" : "US", "city" : "Portland", "country" : "United States", "distance" : 134, "geo" : [ -122.6614308357239, 45.52823824119782 ], "postalCode" : "97232", "state" : "OR" }, "name" : "Anzen", "stats" : { "checkinsCount" : 0, "usersCount" : 0 } }
{ "_id" : { "$oid" : "4ff73cb568840767e50d4ea4" }, "location" : { "cc" : "US", "city" : "Portland", "country" : "United States", "distance" : 96, "geo" : [ -122.6623177363271, 45.52903184072642 ], "postalCode" : "97232", "state" : "OR" }, "name" : "harmony Market Place", "stats" : { "checkinsCount" : 0, "usersCount" : 0 } }
{ "_id" : { "$oid" : "4ff73cb568840767e50d4ea5" }, "location" : { "address" : "NE Holladay St", "cc" : "US", "city" : "Portland", "country" : "United States", "crossStreet" : "at NE Multnomah St.", "distance" : 296, "geo" : [ -122.66592725, 45.530189 ], "postalCode" : "97232", "state" : "OR" }, "name" : "TriMet Rose Quarter Transit Center", "stats" : { "checkinsCount" : 0, "usersCount" : 0 }, "url" : "http://trimet.org/twitter/" }
{ "_id" : { "$oid" : "4ff73cb568840767e50d4ea6" }, "location" : { "address" : "525 NE Grand Ave", "cc" : "US", "city" : "Portland", "country" : "United States", "crossStreet" : "at NE Lloyd Blvd", "distance" : 233, "geo" : [ -122.660922, 45.526966 ], "postalCode" : "97232", "state" : "Oregon" }, "name" : "Starbucks", "stats" : { "checkinsCount" : 0, "usersCount" : 0 }, "url" : "http://www.starbucks.com" }
{ "_id" : { "$oid" : "4ff73cb568840767e50d4ea7" }, "location" : { "address" : "777 NE Martin Luther King Blvd", "cc" : "US", "city" : "Portland", "country" : "United States", "distance" : 104, "geo" : [ -122.6623, 45.527648 ], "postalCode" : "97232", "state" : "OR" }, "name" : "Bricks Cascade", "stats" : { "checkinsCount" : 0, "usersCount" : 0 }, "url" : "http://www.brickscascade.com" }
{ "_id" : { "$oid" : "4ff73cb568840767e50d4ea8" }, "location" : { "address" : "1021 NE Grand Ave.", "cc" : "US", "city" : "Portland", "country" : "United States", "crossStreet" : "btwn NE Hassalo St. & NE Holladay St.", "distance" : 281, "geo" : [ -122.6612400014797, 45.53053236679517 ], "postalCode" : "97232", "state" : "OR" }, "name" : "Red Lion Hotel", "stats" : { "checkinsCount" : 0, "usersCount" : 0 }, "url" : "http://redlion.rdln.com/" }
{ "_id" : { "$oid" : "4ff73cb568840767e50d4ea9" }, "location" : { "address" : "1035 NE Martin Luther King Jr Blvd.", "cc" : "US", "city" : "Portland", "country" : "United States", "crossStreet" : "at NE Hassalo St.", "distance" : 276, "geo" : [ -122.6618385314941, 45.530692 ], "postalCode" : "97232", "state" : "OR" }, "name" : "Starbucks", "stats" : { "checkinsCount" : 0, "usersCount" : 0 }, "url" : "http://www.starbucks.com" }
{ "_id" : { "$oid" : "4ff73cb568840767e50d4eaa" }, "location" : { "cc" : "US", "country" : "United States", "distance" : 295, "geo" : [ -122.6616908786154, 45.53082862353979 ] }, "name" : "DoubleTree Warm Cookie", "stats" : { "checkinsCount" : 0, "usersCount" : 0 } }
{ "_id" : { "$oid" : "4ff73cb568840767e50d4eab" }, "location" : { "address" : "800 NE Oregon St Ste 506", "cc" : "US", "city" : "Portland", "country" : "United States", "distance" : 138, "geo" : [ -122.6616345609338, 45.52904527253166 ], "state" : "Oregon" }, "name" : "Oregon Department of Revenue", "stats" : { "checkinsCount" : 0, "usersCount" : 0 } }
{ "_id" : { "$oid" : "4ff73cb568840767e50d4eac" }, "location" : { "address" : "1135 NE M L King Blvd", "cc" : "US", "city" : "Portland", "country" : "United States", "crossStreet" : "at NE Multnomah St", "distance" : 323, "geo" : [ -122.6618096013139, 45.53112997496306 ], "postalCode" : "97232", "state" : "OR" }, "name" : "Burgerville", "stats" : { "checkinsCount" : 0, "usersCount" : 0 }, "url" : "http://www.burgerville.com" }
{ "_id" : { "$oid" : "4ff73cb568840767e50d4ead" }, "location" : { "address" : "600 NE Grand Ave", "cc" : "US", "city" : "Portland", "country" : "United States", "crossStreet" : "NE Irving St", "distance" : 233, "geo" : [ -122.660669, 45.527193 ], "state" : "OR" }, "name" : "Metro Regional Center", "stats" : { "checkinsCount" : 0, "usersCount" : 0 } }
{ "_id" : { "$oid" : "4ff73cb568840767e50d4eae" }, "location" : { "address" : "777 NE MLK Jr Blvd", "cc" : "US", "city" : "Portland", "country" : "United States", "crossStreet" : "@ Oregon Convention Center", "distance" : 101, "geo" : [ -122.6638126373291, 45.52915520624575 ], "postalCode" : "97232", "state" : "OR" }, "name" : "Oregon Dental Conference", "stats" : { "checkinsCount" : 0, "usersCount" : 0 } }
{ "_id" : { "$oid" : "4ff73cb568840767e50d4eaf" }, "location" : { "address" : "Booth 10083", "cc" : "US", "city" : "Portland", "country" : "United States", "distance" : 212, "geo" : [ -122.6621292054694, 45.52660611949067 ], "postalCode" : "97232", "state" : "OR" }, "name" : "Perka Booth", "stats" : { "checkinsCount" : 0, "usersCount" : 0 } }
{ "_id" : { "$oid" : "4ff73cb568840767e50d4eb0" }, "location" : { "address" : "777 NE Martin Luther King Blvd", "cc" : "US", "city" : "Portland", "country" : "United States", "crossStreet" : "NE Holladay", "distance" : 155, "geo" : [ -122.662181854248, 45.52715590256194 ], "postalCode" : "97232", "state" : "Oregon" }, "name" : "Webvisions Conference", "stats" : { "checkinsCount" : 0, "usersCount" : 0 } }
{ "_id" : { "$oid" : "4ff73cb568840767e50d4eb1" }, "location" : { "address" : "420 Northeast Holladay Street", "cc" : "US", "city" : "Portland", "country" : "United States", "crossStreet" : "at NE Martin Luther King Jr Ave", "distance" : 216, "geo" : [ -122.6612377166748, 45.5298015824607 ], "postalCode" : "97232", "state" : "OR" }, "name" : "Inn at the Convention Center", "stats" : { "checkinsCount" : 0, "usersCount" : 0 } }
{ "_id" : { "$oid" : "4ff73cb568840767e50d4eb2" }, "location" : { "address" : "If It was up your butt you'd know", "cc" : "US", "city" : "Portland", "country" : "United States", "distance" : 245, "geo" : [ -122.660996, 45.526764 ], "postalCode" : "97232", "state" : "OR" }, "name" : "Donald's Car", "stats" : { "checkinsCount" : 0, "usersCount" : 0 } }
{ "_id" : { "$oid" : "4ff73cb568840767e50d4eb3" }, "location" : { "cc" : "US", "city" : "Portland", "country" : "United States", "distance" : 156, "geo" : [ -122.6614704616451, 45.52759733831515 ], "state" : "OR" }, "name" : "Convention Center Autobody", "stats" : { "checkinsCount" : 0, "usersCount" : 0 } }
{ "_id" : { "$oid" : "4ff73cb568840767e50d4eb4" }, "location" : { "address" : "425 NE Hassalo St", "cc" : "US", "city" : "Portland", "country" : "United States", "crossStreet" : "at Martin Luther King Blvd", "distance" : 300, "geo" : [ -122.6609802246094, 45.53061330020922 ], "postalCode" : "97232", "state" : "OR" }, "name" : "Denny's", "stats" : { "checkinsCount" : 0, "usersCount" : 0 }, "url" : "http://www.dennys.com" }
{ "_id" : { "$oid" : "4ff73cb568840767e50d4eb5" }, "location" : { "address" : "777 NE Martin Luther King Blvd", "cc" : "US", "city" : "Portland", "country" : "United States", "crossStreet" : "in Oregon Convention Center", "distance" : 99, "geo" : [ -122.6623106002808, 45.5290650136252 ], "postalCode" : "97232", "state" : "OR" }, "name" : "Starbucks", "stats" : { "checkinsCount" : 0, "usersCount" : 0 } }
{ "_id" : { "$oid" : "4ff73cb568840767e50d4eb6" }, "location" : { "cc" : "US", "city" : "Portland", "country" : "United States", "distance" : 201, "geo" : [ -122.6624970564565, 45.53013550309927 ], "postalCode" : "97232", "state" : "OR" }, "name" : "Convention Center Park", "stats" : { "checkinsCount" : 0, "usersCount" : 0 } }
{ "_id" : { "$oid" : "4ff73cb568840767e50d4eb7" }, "location" : { "address" : "505 NE Grand Ave.", "cc" : "US", "city" : "Portland", "country" : "United States", "crossStreet" : "NE Lloyd Blvd", "distance" : 247, "geo" : [ -122.6609787, 45.526754 ], "postalCode" : "97232", "state" : "OR" }, "name" : "The Playground Gym", "stats" : { "checkinsCount" : 0, "usersCount" : 0 } }
{ "_id" : { "$oid" : "4ff73cb568840767e50d4eb8" }, "location" : { "cc" : "US", "city" : "Portland", "country" : "United States", "distance" : 145, "geo" : [ -122.6639175153348, 45.52956723172423 ], "postalCode" : "97232", "state" : "OR" }, "name" : "DDS Extreme Marketing Booth 1520", "stats" : { "checkinsCount" : 0, "usersCount" : 0 } }
{ "_id" : { "$oid" : "4ff73cb568840767e50d4eb9" }, "location" : { "cc" : "US", "country" : "United States", "distance" : 217, "geo" : [ -122.6603578393268, 45.52829752819117 ] }, "name" : "Land Rover Portland", "stats" : { "checkinsCount" : 0, "usersCount" : 0 } }
{ "_id" : { "$oid" : "4ff73cb568840767e50d4eba" }, "location" : { "cc" : "US", "country" : "United States", "distance" : 147, "geo" : [ -122.6618369582498, 45.52741487151057 ] }, "name" : "Portland Ballroom 253/254", "stats" : { "checkinsCount" : 0, "usersCount" : 0 } }
{ "_id" : { "$oid" : "4ff73cb568840767e50d4ebb" }, "location" : { "address" : "622 NE Grand", "cc" : "US", "city" : "Portland", "country" : "United States", "distance" : 214, "geo" : [ -122.6604635584124, 45.52794105599615 ], "postalCode" : "97232", "state" : "OR" }, "name" : "Hoyt Street Station Cafe", "stats" : { "checkinsCount" : 0, "usersCount" : 0 } }
{ "_id" : { "$oid" : "4ff73cb568840767e50d4ebc" }, "location" : { "cc" : "US", "country" : "United States", "distance" : 204, "geo" : [ -122.662812, 45.53019762039185 ] }, "name" : "TriMet Bus Stop ID 5917 / NE Martin Luther King Blvd & NE Holladay St", "stats" : { "checkinsCount" : 0, "usersCount" : 0 } }
{ "_id" : { "$oid" : "4ff73cb568840767e50d4ebd" }, "location" : { "address" : "47 NE Holladay", "cc" : "US", "city" : "Portland", "country" : "United States", "crossStreet" : "NE Wheeler", "distance" : 295, "geo" : [ -122.665887, 45.53020441666666 ], "state" : "OR" }, "name" : "Sharif's Coffee", "stats" : { "checkinsCount" : 0, "usersCount" : 0 } }
{ "_id" : { "$oid" : "4ff73cb568840767e50d4ebe" }, "location" : { "cc" : "US", "country" : "United States", "distance" : 242, "geo" : [ -122.6606140136719, 45.5296516418457 ] }, "name" : "Tri Met #6 Stop 2175 Trolly Stop [Future]", "stats" : { "checkinsCount" : 0, "usersCount" : 0 } }
{ "_id" : { "$oid" : "4ff73cb568840767e50d4ebf" }, "location" : { "address" : "533 NE Holladay St", "cc" : "US", "city" : "Portland", "country" : "United States", "crossStreet" : "NE 6th Ave", "distance" : 338, "geo" : [ -122.6595802354584, 45.53012613910029 ], "postalCode" : "97232", "state" : "OR" }, "name" : "j Cafe", "stats" : { "checkinsCount" : 0, "usersCount" : 0 }, "url" : "http://www.jcafeportland.com/" }
{ "_id" : { "$oid" : "4ff73cb568840767e50d4ec0" }, "location" : { "address" : "525 ne oregon", "cc" : "US", "city" : "Portland", "country" : "United States", "distance" : 252, "geo" : [ -122.6600248120735, 45.52901094943947 ], "postalCode" : "97232", "state" : "Oregon" }, "name" : "East West College Of The Healing Arts", "stats" : { "checkinsCount" : 0, "usersCount" : 0 } }
{ "_id" : { "$oid" : "4ff73cb568840767e50d4ec1" }, "location" : { "cc" : "US", "country" : "United States", "distance" : 207, "geo" : [ -122.66149804, 45.526915 ] }, "name" : "Virginia Woof - East", "stats" : { "checkinsCount" : 0, "usersCount" : 0 } }
{ "_id" : { "$oid" : "4ff73cb568840767e50d4ec2" }, "location" : { "cc" : "US", "city" : "Portland", "country" : "United States", "distance" : 238, "geo" : [ -122.6646576837632, 45.5302342677652 ], "postalCode" : "97209", "state" : "OR" }, "name" : "BGA Cafe", "stats" : { "checkinsCount" : 0, "usersCount" : 0 } }
{ "_id" : { "$oid" : "4ff73cb568840767e50d4ec3" }, "location" : { "cc" : "US", "city" : "Portland", "country" : "United States", "distance" : 387, "geo" : [ -122.663552, 45.531849 ], "state" : "OR" }, "name" : "Oregon State Hospital Portland", "stats" : { "checkinsCount" : 0, "usersCount" : 0 } }
{ "_id" : { "$oid" : "4ff73cb568840767e50d4ec4" }, "location" : { "address" : "650 NE Holladay St", "cc" : "US", "city" : "Portland", "country" : "United States", "distance" : 347, "geo" : [ -122.6590699333333, 45.52966255 ], "postalCode" : "97232", "state" : "OR" }, "name" : "Cafe Today Liberty Centre", "stats" : { "checkinsCount" : 0, "usersCount" : 0 } }
{ "_id" : { "$oid" : "4ff73cb568840767e50d4ec5" }, "location" : { "cc" : "US", "city" : "Portland", "country" : "United States", "distance" : 197, "geo" : [ -122.6626861429537, 45.53012114276069 ], "state" : "OR" }, "name" : "Hungry Heart Cupcakes", "stats" : { "checkinsCount" : 0, "usersCount" : 0 } }
{ "_id" : { "$oid" : "4ff73cb568840767e50d4ec6" }, "location" : { "address" : "1021 NE Grand Ave", "cc" : "US", "city" : "Portland", "country" : "United States", "crossStreet" : "at NE Hassalo St", "distance" : 287, "geo" : [ -122.6610553264618, 45.530506 ], "postalCode" : "97232", "state" : "OR" }, "name" : "Windows Lounge & Rooftop Terrace", "stats" : { "checkinsCount" : 0, "usersCount" : 0 } }
{ "_id" : { "$oid" : "4ff73cb568840767e50d4ec7" }, "location" : { "cc" : "US", "city" : "Portland", "country" : "United States", "distance" : 144, "geo" : [ -122.6619124093447, 45.52935183118676 ], "postalCode" : "97232", "state" : "OR" }, "name" : "Portland Roasting Coffee @ Oregon Convention Center", "stats" : { "checkinsCount" : 0, "usersCount" : 0 } }
{ "_id" : { "$oid" : "4ff73cb568840767e50d4ec8" }, "location" : { "address" : "518 NE Holladay St", "cc" : "US", "city" : "Portland", "country" : "United States", "crossStreet" : "Grand Avenue", "distance" : 275, "geo" : [ -122.6603613447664, 45.52990439518558 ], "postalCode" : "97232", "state" : "Oregon" }, "name" : "Motel 6 Downtown", "stats" : { "checkinsCount" : 0, "usersCount" : 0 }, "url" : "http://www.motel6.com" }
{ "_id" : { "$oid" : "4ff73cb568840767e50d4ec9" }, "location" : { "address" : "650 ne holladay", "cc" : "US", "city" : "Portland", "country" : "United States", "distance" : 351, "geo" : [ -122.6590627454282, 45.52971816771782 ], "postalCode" : "97232", "state" : "Oregon" }, "name" : "Liberty Center Stairs", "stats" : { "checkinsCount" : 0, "usersCount" : 0 } }
{ "_id" : { "$oid" : "4ff73cb568840767e50d4eca" }, "location" : { "cc" : "US", "city" : "Portland", "country" : "United States", "distance" : 211, "geo" : [ -122.66050855, 45.52790343333334 ], "state" : "OR" }, "name" : "The Pongo Fund", "stats" : { "checkinsCount" : 0, "usersCount" : 0 } }
{ "_id" : { "$oid" : "4ff73cb568840767e50d4ecb" }, "location" : { "cc" : "US", "city" : "Portland", "country" : "United States", "distance" : 382, "geo" : [ -122.6655044555664, 45.52536773681641 ], "postalCode" : "97232", "state" : "OR" }, "name" : "I-5 ramp to I-84", "stats" : { "checkinsCount" : 0, "usersCount" : 0 } }
{ "_id" : { "$oid" : "4ff73cb568840767e50d4ecc" }, "location" : { "address" : "6140 SW Macadam Avenue", "cc" : "US", "city" : "Portland", "country" : "United States", "crossStreet" : "Btwn Iowa st & Carolina", "distance" : 310, "geo" : [ -122.6641795013246, 45.52568231419687 ], "postalCode" : "97232", "state" : "Oregon" }, "name" : "Grand + Benedicts", "stats" : { "checkinsCount" : 0, "usersCount" : 0 }, "url" : "http://www.grand-benedicts.com" }
{ "_id" : { "$oid" : "4ff73cb568840767e50d4ecd" }, "location" : { "cc" : "US", "country" : "United States", "distance" : 177, "geo" : [ -122.6653099833333, 45.52884756666667 ] }, "name" : "Blanchard Educational Center", "stats" : { "checkinsCount" : 0, "usersCount" : 0 } }
